,City,Country,Lat,Lon,Temp,Cloudiness(%),Windspeed,Humidity,Max Temp,Date
0,Khovd,MN,48.01,91.64,44.4,96,2.28,46,44.4,1586917824
1,Faanui,PF,-16.48,-151.75,83.3,28,5.77,65,83.3,1586917397
2,Saint Paul Harbor,US,57.79,-152.41,42.8,90,8.05,87,42.8,1586917825
3,Tasiilaq,GL,65.61,-37.64,28.4,2,6.93,63,28.4,1586917825
4,Barrow,US,71.29,-156.79,12.2,90,14.99,85,12.2,1586917825
5,Puerto Ayacucho,VE,5.66,-67.62,79.29,63,4.76,48,79.29,1586917826
6,Punta Arenas,CL,-53.15,-70.92,46.2,75,11.41,81,46.4,1586917615
7,Ginir,ET,7.13,40.7,58.59,36,2.84,54,58.59,1586917826
8,La Ronge,CA,55.1,-105.28,28.4,20,4.7,33,28.4,1586917539
9,Port Alfred,ZA,-33.59,26.89,62.01,53,1.01,97,62.01,1586917826
10,Sur,OM,22.57,59.53,84.52,61,6.76,34,84.52,1586917826
11,Port Hardy,CA,50.7,-127.42,57.2,75,11.41,67,57.2,1586917529
12,Puerto Ayora,EC,-0.74,-90.35,79.0,95,5.99,93,79.0,1586917827
13,Nemuro,JP,43.32,145.57,37.4,75,11.41,55,37.4,1586917827
14,Depālpur,IN,22.85,75.55,91.49,58,12.46,16,91.49,1586917827
15,Mazara del Vallo,IT,37.66,12.59,54.86,5,6.93,87,59.0,1586917827
16,Hermanus,ZA,-34.42,19.23,57.0,86,1.01,84,57.0,1586917827
17,Avarua,CK,-21.21,-159.78,78.8,73,4.7,74,78.8,1586917724
18,Balkhash,KZ,46.84,74.98,46.29,5,16.2,47,46.29,1586917828
19,Busselton,AU,-33.65,115.33,69.42,17,16.2,37,72.0,1586917828
20,Butaritari,KI,3.07,172.79,83.73,76,15.73,79,83.73,1586917828
21,Takapau,NZ,-40.03,176.35,57.92,95,7.0,57,60.01,1586917829
22,Laguna,US,38.42,-121.42,72.84,1,3.36,16,77.0,1586917829
23,Vostok,RU,46.49,135.88,42.39,47,8.75,43,42.39,1586917829
24,Honiara,SB,-9.43,159.95,87.8,75,6.93,70,87.8,1586917829
25,Tiksi,RU,71.69,128.87,6.48,100,14.03,93,6.48,1586917830
26,Palmerston,AU,-12.49,130.98,91.35,20,16.11,52,91.99,1586917830
27,Mataura,NZ,-46.19,168.86,46.99,100,3.0,95,46.99,1586917830
28,Ambon City,ID,-3.7,128.18,87.8,40,9.17,70,87.8,1586917792
29,Yankton,US,42.87,-97.4,29.16,1,4.7,68,30.0,1586917830
30,Jamestown,US,42.1,-79.24,32.16,40,10.29,92,37.99,1586917687
31,Ponta do Sol,PT,32.67,-17.1,55.38,20,3.36,62,57.99,1586917830
32,Westport,US,41.14,-73.36,48.36,90,9.17,66,51.01,1586917831
33,Corleone,IT,37.81,13.3,54.84,0,18.99,96,59.0,1586917831
34,Nanortalik,GL,60.14,-45.24,29.32,99,6.24,91,29.32,1586917831
35,Nome,US,64.5,-165.41,33.91,90,11.41,100,34.0,1586917831
36,Labuhan,ID,-6.88,112.21,86.74,2,5.17,66,86.74,1586917831
37,Kuito,AO,-12.38,16.93,58.78,89,1.07,59,58.78,1586917832
38,Los Llanos de Aridane,ES,28.66,-17.92,64.4,32,8.05,63,64.4,1586917832
39,Nuuk,GL,64.18,-51.72,28.2,95,17.22,63,28.4,1586917429
40,Grakhovo,RU,56.05,51.97,41.0,75,15.66,60,41.0,1586917832
41,Rikitea,PF,-23.12,-134.97,76.28,32,7.07,66,76.28,1586917833
42,Yerbogachën,RU,61.28,108.01,43.7,83,5.08,66,43.7,1586917833
43,Ushuaia,AR,-54.8,-68.3,48.2,40,6.17,66,48.2,1586917833
44,Saint-Philippe,RE,-21.36,55.77,69.94,6,5.82,73,75.2,1586917833
45,Vaini,TO,-21.2,-175.2,82.4,20,6.93,69,82.4,1586917833
46,Cockburn Town,TC,21.46,-71.14,78.76,0,19.01,81,78.76,1586917435
47,Saint George,US,37.1,-113.58,57.33,1,8.05,14,61.0,1586917787
48,San Cristobal,VE,7.77,-72.22,67.57,26,1.43,58,67.57,1586917834
49,Atuona,PF,-9.8,-139.03,82.6,31,3.74,66,82.6,1586917834
50,Provideniya,RU,64.38,-173.3,32.0,90,8.95,96,32.0,1586917834
51,Yellowknife,CA,62.46,-114.35,32.0,90,12.75,95,32.0,1586917692
52,Mahébourg,MU,-20.41,57.7,77.68,75,14.99,74,78.8,1586917834
53,Beira,MZ,-19.84,34.84,75.2,65,3.36,100,75.2,1586917835
54,‘Āhuimanu,US,21.44,-157.84,77.76,75,3.36,74,78.8,1586917835
55,Tomatlán,MX,19.93,-105.25,69.48,15,5.91,63,69.48,1586917835
56,Pizhanka,RU,57.46,48.54,39.58,79,10.94,87,39.58,1586917835
57,Airai,TL,-8.93,125.41,72.5,87,3.24,53,72.5,1586917302
58,Pacific Grove,US,36.62,-121.92,62.87,1,4.7,37,70.0,1586917787
59,Havøysund,NO,71.0,24.66,32.0,94,31.09,88,32.0,1586917446
60,Ostrovnoy,RU,68.05,39.51,36.01,100,16.49,93,36.01,1586917836
61,Tessalit,ML,20.2,1.01,77.34,97,19.75,34,77.34,1586917430
62,Chokurdakh,RU,70.63,147.92,-0.72,0,8.01,90,-0.72,1586917836
63,Pombas,CV,17.15,-25.02,71.6,40,10.29,73,71.6,1586917836
64,Bredasdorp,ZA,-34.53,20.04,44.6,56,2.08,93,44.6,1586917837
65,Thompson,CA,55.74,-97.86,17.6,5,4.7,40,17.6,1586917688
66,Talnakh,RU,69.49,88.4,1.4,20,15.66,70,1.4,1586917837
67,Viedma,AR,-40.81,-63.0,54.36,36,8.77,73,54.36,1586917627
68,Husavik,IS,66.04,-17.34,37.4,90,19.46,64,37.4,1586917546
69,Sinnamary,GF,5.38,-52.95,77.74,77,9.4,81,77.74,1586917837
70,Arklow,IE,52.79,-6.14,37.96,24,2.24,93,41.0,1586917838
71,Ténenkou,ML,14.46,-4.92,79.99,80,18.25,45,79.99,1586917838
72,Klaksvík,FO,62.23,-6.59,44.6,86,14.99,100,44.6,1586917448
73,Cherskiy,RU,68.75,161.3,9.03,100,9.91,94,9.03,1586917838
74,Lata,PT,40.16,-8.33,52.43,40,6.93,87,55.0,1586917838
75,Paragominas,BR,-2.97,-47.48,70.43,100,3.27,96,70.43,1586917685
76,Kupang,ID,-10.17,123.58,89.6,20,9.17,66,89.6,1586917839
77,Baculin,PH,7.45,126.58,88.14,83,6.31,54,88.14,1586917839
78,Dicabisagan,PH,17.08,122.42,81.43,6,6.71,71,81.43,1586917839
79,Aklavik,CA,68.22,-135.01,35.6,75,4.7,64,35.6,1586917323
80,Hithadhoo,MV,-0.6,73.08,84.79,50,2.35,65,84.79,1586917839
81,Isabela,PH,6.71,121.97,84.2,20,6.93,83,84.2,1586917840
82,Oron,NG,4.83,8.23,79.88,53,3.74,88,79.88,1586917840
83,Palmer,US,42.16,-72.33,46.53,75,4.7,31,52.0,1586917840
84,Tigil',RU,57.8,158.67,25.25,99,8.23,94,25.25,1586917841
85,Nikolskoye,RU,59.7,30.79,32.86,75,6.71,86,34.0,1586917841
86,Tamiahua,MX,21.27,-97.45,77.7,95,18.77,85,77.7,1586917841
87,Harare,ZW,-17.83,31.05,58.73,0,3.24,62,58.73,1586917731
88,Hofn,IS,64.25,-15.21,36.97,97,15.12,76,36.97,1586917842
89,Esperance,AU,-33.87,121.9,69.8,0,23.04,46,69.8,1586917842
90,Pangnirtung,CA,66.15,-65.71,8.83,84,6.76,84,8.83,1586917842
91,Petropavlovsk-Kamchatskiy,RU,53.05,158.65,37.4,40,6.71,51,37.4,1586917561
92,Beringovskiy,RU,63.05,179.32,27.0,100,11.54,97,27.0,1586917842
93,Cabo San Lucas,MX,22.89,-109.91,70.3,5,6.93,33,73.4,1586917843
94,Tallinn,EE,59.44,24.75,33.73,90,5.82,95,35.01,1586917712
95,Dinguiraye,GN,11.3,-10.72,75.34,88,1.92,66,75.34,1586917843
96,Ratnagiri,IN,16.98,73.3,84.11,0,7.61,66,84.11,1586917323
97,Samarai,PG,-10.62,150.67,85.14,1,9.01,72,85.14,1586917618
98,Arraial do Cabo,BR,-22.97,-42.03,75.2,20,14.99,88,75.2,1586917843
99,Medicine Hat,CA,50.05,-110.67,40.75,90,10.29,80,41.0,1586917844
100,Upernavik,GL,72.79,-56.15,20.41,97,4.32,92,20.41,1586917844
101,Aykhal,RU,66.0,111.5,14.0,100,4.47,56,14.0,1586917844
102,Carnarvon,AU,-24.87,113.63,78.8,37,21.92,50,78.8,1586917844
103,Sorong,ID,-0.88,131.25,88.2,64,5.46,61,88.2,1586917369
104,Namatanai,PG,-3.67,152.43,83.52,86,1.72,70,83.52,1586917844
105,Leningradskiy,RU,69.38,178.42,15.1,100,3.65,93,15.1,1586917745
106,Hobart,AU,-42.88,147.33,58.69,90,2.24,77,61.0,1586917845
107,Ilulissat,GL,69.22,-51.1,24.8,100,3.36,85,24.8,1586917845
108,Qaanaaq,GL,77.48,-69.36,14.92,100,3.09,93,14.92,1586917845
109,Kapaa,US,22.08,-159.32,75.56,75,9.17,94,78.8,1586917845
110,Făurei,RO,45.08,27.27,39.2,75,9.17,64,39.2,1586917845
111,El Tigre,VE,8.89,-64.25,78.76,77,11.9,54,78.76,1586917846
112,Lagos,NG,6.58,3.75,82.4,20,2.24,88,82.4,1586917775
113,Diffa,NE,13.32,12.61,76.33,1,9.75,18,76.33,1586917516
114,Hilo,US,19.73,-155.09,74.16,75,9.17,69,78.8,1586917846
115,Te Anau,NZ,-45.42,167.72,52.18,93,4.12,54,52.18,1586917477
116,Albany,US,42.6,-73.97,39.6,90,5.19,33,44.6,1586917702
117,Ayr,GB,55.46,-4.63,37.51,20,3.36,86,41.0,1586917847
118,Thongwa,MM,16.76,96.53,82.4,40,3.36,83,82.4,1586917847
119,Takoradze,GH,4.88,-1.76,81.14,62,5.55,84,81.14,1586917354
120,Mossamedes,AO,-15.2,12.15,73.98,30,5.26,71,73.98,1586917847
121,Nizwá,OM,22.93,57.53,77.58,31,0.6,34,77.58,1586917847
122,Chapais,CA,49.78,-74.85,23.0,40,5.82,73,23.0,1586917848
123,Ilo,PE,-17.64,-71.34,70.77,34,4.99,73,70.77,1586917719
124,Panguipulli,CL,-39.63,-72.33,52.5,99,3.36,100,53.01,1586917848
125,Marsh Harbour,BS,26.54,-77.06,76.32,92,15.61,86,76.32,1586917848
126,Praia,CV,14.92,-23.51,69.8,66,23.04,77,69.8,1586917726
127,Yambio,SS,4.57,28.4,70.18,99,4.29,72,70.18,1586917849
128,Cape Town,ZA,-33.93,18.42,59.5,100,6.93,87,62.01,1586917579
129,Hamilton,US,39.18,-84.53,35.28,1,5.08,38,39.2,1586917554
130,Yulara,AU,-25.24,130.99,86.0,0,6.93,13,86.0,1586917849
131,Kavieng,PG,-2.57,150.8,83.25,55,6.76,74,83.25,1586917849
132,Grindavik,IS,63.84,-22.43,36.46,75,23.04,93,37.4,1586917268
133,Tuktoyaktuk,CA,69.45,-133.04,24.8,40,5.82,85,24.8,1586917849
134,Bethel,US,41.37,-73.41,48.2,90,6.93,77,51.8,1586917288
135,Tarpon Springs,US,28.15,-82.76,78.53,1,4.7,88,80.6,1586917850
136,Ampanihy,MG,-24.7,44.75,73.38,0,4.99,65,73.38,1586917850
137,Vágur,FO,61.47,-6.81,46.08,93,25.95,90,46.08,1586917850
138,Tignère,CM,7.37,12.65,70.52,80,2.19,45,70.52,1586917850
139,East London,ZA,-33.02,27.91,64.9,97,8.19,72,64.9,1586917850
140,Osoyoos,CA,49.03,-119.45,51.69,90,4.7,62,59.0,1586917850
141,Wasilla,US,61.58,-149.44,48.22,90,0.83,76,50.0,1586917604
142,Fort Nelson,CA,58.81,-122.7,42.8,75,4.7,74,42.8,1586917851
143,Quepos,CR,9.42,-84.17,73.4,20,5.82,78,73.4,1586917851
144,Måløy,NO,61.94,5.11,41.18,100,8.05,93,42.8,1586917781
145,New Norfolk,AU,-42.78,147.06,58.42,90,2.24,77,61.0,1586917851
146,Dhanaula,IN,30.28,75.58,88.23,100,8.12,16,88.23,1586917851
147,Santiago,CL,-33.46,-70.65,62.6,19,8.05,45,62.6,1586917852
148,Kamen'-na-Obi,RU,53.79,81.34,43.52,96,7.18,80,43.52,1586917852
149,Morros,BR,-9.45,-46.3,69.6,100,7.7,84,69.6,1586917852
150,Bluff,NZ,-46.6,168.33,46.99,100,3.0,95,46.99,1586917852
151,Katsuura,JP,35.13,140.3,61.38,75,5.82,58,66.99,1586917852
152,Mar del Plata,AR,-38.0,-57.56,59.31,75,12.75,76,60.01,1586917765
153,Khatanga,RU,71.97,102.5,3.47,53,4.16,90,3.47,1586917853
154,Hong Kong,HK,22.29,114.16,73.51,20,5.82,56,75.99,1586917777
155,Alghero,IT,40.56,8.32,55.4,0,6.93,87,55.4,1586917740
156,Kaitangata,NZ,-46.28,169.85,51.17,100,10.0,70,52.0,1586917853
157,Visby,SE,57.64,18.3,41.86,100,13.87,86,43.0,1586917744
158,Malayal,PH,7.21,121.94,84.2,20,6.93,83,84.2,1586917854
159,Dhidhdhoo,MV,6.88,73.1,85.24,81,4.65,64,85.24,1586917854
160,Arroyo de la Encomienda,ES,41.61,-4.8,49.73,20,6.93,93,52.0,1586917854
161,Mambajao,PH,9.25,124.72,81.1,13,5.61,74,81.1,1586917854
162,Kiama,AU,-34.68,150.87,77.34,74,9.17,32,82.4,1586917276
163,Gigmoto,PH,13.78,124.39,80.78,10,10.92,81,80.78,1586917855
164,Longyearbyen,SJ,78.22,15.64,32.0,75,24.16,93,32.0,1586917855
165,Asău,RO,46.43,26.4,32.58,57,5.82,80,34.0,1586917601
166,Maxixe,MZ,-23.86,35.35,75.52,8,8.95,86,75.52,1586917348
167,Cayenne,GF,4.93,-52.33,77.0,90,5.28,88,77.0,1586917855
168,Murray Bridge,AU,-35.12,139.27,77.2,100,5.01,28,78.01,1586917856
169,La Crosse,US,43.8,-91.24,26.6,75,13.87,58,28.99,1586917763
170,Yangi Marg`ilon,UZ,40.43,71.72,51.8,75,9.17,87,51.8,1586917437
171,Xuanzhou,CN,30.95,118.76,70.79,13,7.65,48,70.79,1586917856
172,Gubin,PL,51.95,14.73,38.26,87,3.0,69,39.0,1586917856
173,Tautira,PF,-17.73,-149.15,86.0,6,16.11,74,86.0,1586917261
174,Bonavista,CA,48.65,-53.11,39.99,63,14.83,82,39.99,1586917677
175,Russell,US,32.35,-85.2,60.62,1,6.93,87,66.0,1586917857
176,Kruisfontein,ZA,-34.0,24.73,55.04,0,5.64,83,55.04,1586917857
177,Karasjok,NO,69.47,25.51,32.0,100,25.28,96,32.0,1586917857
178,Frontera,MX,26.93,-101.45,61.0,8,10.25,57,61.0,1586917857
179,Lompoc,US,34.64,-120.46,62.04,1,9.17,82,64.99,1586917857
180,Lashio,MM,22.93,97.75,88.63,49,2.21,20,88.63,1586917858
181,San Jerónimo,PE,-11.95,-75.28,48.43,61,1.59,27,48.43,1586917858
182,Ancud,CL,-41.87,-73.82,50.0,75,13.87,100,50.0,1586917462
183,Shilka,RU,51.85,116.03,50.94,100,11.65,34,50.94,1586917846
184,Camacha,PT,33.08,-16.33,59.76,20,17.22,72,60.8,1586917058
185,Pitimbu,BR,-7.47,-34.81,77.0,20,2.24,88,77.0,1586917858
186,Clyde River,CA,70.47,-68.59,-2.2,1,3.36,91,-2.2,1586917858
187,Saint-Louis,SN,16.33,-15.0,72.36,70,13.15,38,72.36,1586917859
188,Comodoro Rivadavia,AR,-45.87,-67.5,46.4,61,2.24,75,46.4,1586917859
189,Fairbanks,US,64.84,-147.72,48.2,20,3.36,45,48.2,1586917158
190,Mahon,ES,39.89,4.27,53.6,5,5.82,93,53.6,1586917859
191,Raudeberg,NO,61.99,5.14,41.77,100,8.05,93,42.8,1586917859
192,Pangkalanbuun,ID,-2.68,111.62,85.98,68,0.89,75,85.98,1586917518
193,Faya,SA,18.39,42.45,61.7,40,11.41,87,62.6,1586917859
194,Puerto Colombia,CO,10.99,-74.95,80.6,0,6.93,78,80.6,1586917860
195,Niamey,NE,13.51,2.11,91.4,31,3.36,18,91.4,1586917860
196,Lavrentiya,RU,65.58,-171.0,29.71,100,10.25,98,29.71,1586917860
197,Kralendijk,BQ,12.15,-68.27,80.6,1,11.41,74,80.6,1586917811
198,Iracoubo,GF,5.48,-53.2,77.22,83,8.34,81,77.22,1586917860
199,Taltal,CL,-25.4,-70.48,58.41,4,1.72,77,58.41,1586917861
200,Wiarton,CA,44.74,-81.13,29.41,75,6.93,68,30.99,1586917861
201,Pisco,PE,-13.7,-76.22,70.92,40,8.05,78,71.6,1586917861
202,Snezhnogorsk,RU,69.19,33.25,32.0,40,2.24,88,32.0,1586917861
203,Iqaluit,CA,63.75,-68.51,15.39,75,10.29,61,15.8,1586917861
204,Saskylakh,RU,71.92,114.08,0.16,99,11.99,91,0.16,1586917862
205,Manicoré,BR,-5.81,-61.3,75.2,75,2.24,100,75.2,1586917862
206,Dikson,RU,73.51,80.55,7.92,40,8.86,92,7.92,1586917862
207,Washougal,US,45.58,-122.35,61.21,1,6.93,37,66.2,1586917710
208,Gorontalo,ID,0.54,123.06,87.12,79,1.81,65,87.12,1586917862
209,Linxia Chengguanzhen,CN,35.6,103.21,64.58,3,4.99,13,64.58,1586917862
210,Obihiro,JP,42.92,143.2,39.2,75,3.36,60,39.2,1586917863
211,Iquitos,PE,-3.75,-73.25,80.6,10,2.24,78,80.6,1586917062
212,Santa Maria,BR,-29.68,-53.81,57.2,0,8.05,71,57.2,1586917863
213,São João da Barra,BR,-21.64,-41.05,74.59,44,17.63,82,74.59,1586917863
214,Mehamn,NO,71.04,27.85,34.18,100,9.53,89,34.18,1586917480
215,Gogrial,SS,8.53,28.1,77.52,11,3.62,15,77.52,1586917863
216,Kholtoson,RU,50.3,103.31,42.62,24,7.34,34,42.62,1586917864
217,Doumé,CM,4.23,13.45,71.01,82,1.03,72,71.01,1586917864
218,Rawson,AR,-43.3,-65.1,58.53,88,13.06,60,58.53,1586917864
219,Xining,CN,36.62,101.77,60.26,12,2.06,12,60.26,1586917840
220,Kamina,CD,-8.74,24.99,66.38,100,1.1,69,66.38,1586917864
221,Vardø,NO,70.37,31.11,36.25,100,11.9,89,36.25,1586917864
222,Aden,YE,12.78,45.04,81.39,60,14.47,82,81.39,1586917232
223,Bathsheba,BB,13.22,-59.52,80.6,40,16.11,69,80.6,1586917866
224,Andújar,ES,38.04,-4.05,57.0,60,1.99,71,57.0,1586917624
225,Saldanha,ZA,-33.01,17.94,59.72,100,6.64,89,59.72,1586917866
226,Mlonggo,ID,-6.53,110.7,87.8,20,10.29,70,87.8,1586917866
227,San Vicente,AR,-26.62,-54.13,45.41,0,1.43,83,45.41,1586917866
228,Champerico,GT,14.3,-91.92,83.62,99,4.03,71,83.62,1586917866
229,Kahului,US,20.89,-156.47,74.77,40,4.7,65,80.6,1586917278
230,Bengkulu,ID,-3.8,102.27,85.01,92,1.14,71,85.01,1586917867
231,Sitka,US,57.05,-135.33,46.96,90,0.94,87,50.0,1586917867
232,Oksovskiy,RU,62.61,39.9,33.26,100,2.93,93,33.26,1586917867
233,Gawler,AU,-34.6,138.73,78.49,100,14.99,15,80.6,1586917867
234,Pevek,RU,69.7,170.31,13.5,27,2.48,91,13.5,1586917867
235,Broome,US,42.25,-75.83,39.81,90,13.87,59,43.0,1586917305
236,Durango,MX,24.83,-104.83,60.94,89,7.81,12,60.94,1586917686
237,Lagoa,PT,39.05,-27.98,56.07,67,20.36,65,56.07,1586917364
238,Naze,JP,28.37,129.48,68.92,75,9.17,56,69.8,1586917868
239,Talcahuano,CL,-36.72,-73.12,55.4,98,3.36,82,55.4,1586917868
240,Hobyo,SO,5.35,48.53,83.53,54,10.36,76,83.53,1586917283
241,Moose Jaw,CA,50.4,-105.53,27.23,20,6.93,32,28.99,1586917869
242,North Bend,US,43.41,-124.22,51.76,1,18.34,81,55.0,1586917869
243,Nantucket,US,41.28,-70.1,46.36,1,8.05,81,48.2,1586917595
244,Mosquera,CO,4.71,-74.23,55.4,52,4.7,87,55.4,1586917869
245,Biskamzha,RU,53.45,89.53,47.21,35,1.25,53,47.21,1586917870
246,Evensk,RU,61.95,159.23,24.39,7,3.83,88,24.39,1586917870
247,Santiago de Cao,PE,-7.96,-79.24,73.71,11,7.45,77,73.71,1586917870
248,Coahuayana Viejo,MX,18.73,-103.68,71.62,99,1.41,72,71.62,1586917870
249,Port Elizabeth,ZA,-33.92,25.57,59.0,75,8.05,100,59.0,1586917712
250,Kristinestad,FI,62.27,21.38,33.84,100,7.76,96,33.84,1586917870
251,Lorengau,PG,-2.02,147.27,85.55,69,1.86,64,85.55,1586917871
252,Ankang,CN,32.68,109.02,76.73,47,2.1,33,76.73,1586917871
253,Narsaq,GL,60.92,-46.05,28.4,97,6.93,46,28.4,1586917871
254,São Lourenço do Sul,BR,-31.37,-51.98,59.0,29,3.0,72,59.0,1586917871
255,Salinas,US,36.68,-121.66,63.09,1,8.05,59,72.0,1586917871
256,Dafeng,CN,23.45,108.59,74.93,82,5.66,54,74.93,1586917871
257,Soyo,AO,-6.13,12.37,79.43,87,4.79,89,79.43,1586917437
258,Bratsk,RU,56.13,101.61,50.0,0,2.24,29,50.0,1586917872
259,Lebu,CL,-37.62,-73.65,55.45,100,1.99,70,55.45,1586917872
260,Henties Bay,NA,-22.12,14.28,57.0,0,1.99,93,57.0,1586917872
261,Karratha,AU,-20.74,116.85,89.91,21,3.22,44,89.91,1586917284
262,Buchanan,LR,5.88,-10.05,78.8,20,2.62,94,78.8,1586917872
263,Kibala,TD,9.11,18.35,83.46,85,3.11,29,83.46,1586917873
264,Cidreira,BR,-30.18,-50.21,61.21,42,20.65,73,61.21,1586917873
265,Okha,RU,53.57,142.95,30.97,100,11.27,94,30.97,1586917873
266,Moerai,PF,-22.43,-151.33,77.29,25,11.43,65,77.29,1586917873
267,Lüderitz,NA,-26.65,15.16,59.0,2,10.29,62,59.0,1586917873
268,Hasaki,JP,35.73,140.83,64.49,40,5.82,39,66.99,1586917874
269,Gijang,KR,35.24,129.21,62.6,100,4.7,23,62.6,1586917874
270,Bloemfontein,ZA,-29.12,26.21,44.6,11,4.7,100,44.6,1586917728
271,Riyadh,SA,24.69,46.72,62.6,3,9.31,55,62.6,1586917874
272,Beloha,MG,-25.17,45.05,73.02,0,4.99,71,73.02,1586917540
273,Havre-St-Pierre,CA,50.23,-63.6,32.0,1,13.87,91,32.0,1586917350
274,Kavaratti,IN,10.57,72.64,83.97,23,4.07,70,83.97,1586917875
275,Inhambane,MZ,-23.86,35.38,76.05,8,9.46,86,76.05,1586917875
276,Mackenzie,CA,55.3,-123.17,46.4,75,2.57,49,46.4,1586917743
277,Poso,ID,-1.4,120.75,88.16,94,1.86,55,88.16,1586917875
278,Kurikka,FI,62.62,22.42,30.81,90,4.7,92,32.0,1586917876
279,Gmina Świecie,PL,53.41,18.45,37.42,90,12.75,60,39.99,1586917876
280,San Miguel de Cozumel,MX,20.51,-86.95,80.74,5,8.05,78,81.0,1586917876
281,Paamiut,GL,61.99,-49.67,28.49,99,10.2,90,28.49,1586917876
282,Souillac,MU,-20.52,57.52,77.49,75,14.99,74,78.8,1586917876
283,Pemangkat,ID,1.17,108.97,85.75,26,5.82,65,85.75,1586917876
284,Kirando,TZ,-7.42,30.6,72.82,100,7.14,67,72.82,1586917876
285,Banda Aceh,ID,5.56,95.32,86.02,9,5.44,67,86.02,1586917877
286,Okhotsk,RU,59.38,143.3,31.82,0,6.08,88,31.82,1586917412
287,Rodrigues Alves,BR,-7.74,-72.65,76.3,57,1.39,78,76.3,1586917877
288,Vila Franca do Campo,PT,37.72,-25.43,53.6,75,8.05,81,53.6,1586917611
289,Ca Mau,VN,9.18,105.15,87.71,100,13.11,62,87.71,1586917877
290,Bambous Virieux,MU,-20.34,57.76,77.47,75,14.99,74,78.8,1586917878
291,Québec,CA,46.81,-71.21,35.49,75,6.93,55,37.99,1586917879
292,Port Blair,IN,11.67,92.75,83.59,95,6.42,72,83.59,1586917879
293,Shīeli,KZ,44.17,66.75,49.42,0,8.88,42,49.42,1586917879
294,Kununurra,AU,-15.77,128.73,93.2,13,6.93,30,93.2,1586917879
295,Ribeira Grande,PT,38.52,-28.7,50.0,40,11.41,76,50.0,1586917879
296,Dongsheng,CN,39.82,109.98,52.39,100,14.09,22,52.39,1586917880
297,Port-Cartier,CA,50.03,-66.87,33.91,20,16.11,47,34.0,1586917880
298,Fare,PF,-16.7,-151.02,84.04,27,2.89,63,84.04,1586917880
299,Kichera,RU,55.94,110.1,44.8,0,2.06,43,44.8,1586917880
300,Sola,VU,-13.88,167.55,82.51,100,15.28,78,82.51,1586917365
301,Castro,BR,-24.79,-50.01,52.66,0,2.93,65,52.66,1586917880
302,Vao,NC,-22.67,167.48,74.66,90,13.49,74,74.66,1586917880
303,Acapulco de Juárez,MX,16.86,-99.89,77.0,5,9.17,88,77.0,1586917747
304,Stralsund,DE,54.31,13.08,42.96,75,16.11,70,43.0,1586917881
305,Ohangaron,UZ,40.91,69.64,51.8,100,4.7,66,51.8,1586917881
306,Polunochnoye,RU,60.87,60.42,36.27,100,4.21,93,36.27,1586917881
307,Am Timan,TD,11.03,20.28,78.98,55,7.09,14,78.98,1586917881
308,Kirakira,SB,-10.45,161.92,86.58,82,9.17,68,86.58,1586917881
309,Coos Bay,US,43.37,-124.22,51.96,1,18.34,81,55.0,1586917593
310,Tayoltita,MX,24.08,-105.93,62.89,65,2.28,21,62.89,1586917882
311,Ilovlya,RU,49.3,43.98,44.29,98,13.42,70,44.6,1586917882
312,Diplo,PK,24.47,69.58,82.99,92,15.12,56,82.99,1586917882
313,Mitú,CO,1.2,-70.17,75.96,99,2.26,73,75.96,1586917862
314,Daru,PG,-9.08,143.21,84.56,88,10.78,75,84.56,1586917291
315,George Town,MY,5.41,100.34,86.77,20,2.91,74,87.8,1586917882
316,Esim,GH,4.87,-2.24,81.27,84,6.13,83,81.27,1586917883
317,Monsenhor Gil,BR,-5.56,-42.61,77.0,40,4.7,88,77.0,1586917883
318,Ville-Marie,CA,47.33,-79.43,30.2,90,5.82,68,30.2,1586917883
319,San Patricio,MX,19.22,-104.7,77.0,40,4.79,73,77.0,1586917362
320,Spring Valley,US,36.11,-115.25,63.25,1,9.17,9,66.99,1586917883
321,Tuatapere,NZ,-46.13,167.68,46.99,100,4.0,95,46.99,1586917549
322,Pierre,US,44.37,-100.35,24.8,40,5.82,73,24.8,1586917201
323,Singleton,AU,-32.57,151.18,80.87,29,6.93,50,84.0,1586917884
324,Narganá,PA,9.44,-78.59,79.9,42,4.83,78,79.9,1586917884
325,Ixtapa,MX,20.7,-105.2,71.6,5,4.7,73,71.6,1586917884
326,Mugan,CN,35.94,101.38,60.1,0,3.94,11,60.1,1586917884
327,Kokoda,PG,-8.88,147.74,88.59,88,2.53,47,88.59,1586917884
328,Touros,BR,-5.2,-35.46,80.6,79,2.24,88,80.6,1586917884
329,Bethanien,NA,-26.5,17.16,49.08,70,1.14,32,49.08,1586917885
330,Nouakchott,MR,18.09,-15.98,68.0,56,13.87,77,68.0,1586917687
331,Barrafranca,IT,37.38,14.2,54.25,12,2.24,71,57.2,1586917885
332,Codrington,AU,-38.27,141.97,71.8,100,17.52,37,71.8,1586917885
333,Talara,PE,-4.58,-81.27,74.98,1,2.93,74,74.98,1586917510
334,Goundam,ML,16.41,-3.67,78.21,100,17.67,48,78.21,1586917885
335,Gizo Government Station,SB,-8.1,156.84,84.36,88,8.88,77,84.36,1586917352
336,Nur-Sultan,KZ,51.18,71.45,39.2,75,13.42,80,39.2,1586917886
337,Colares,PT,38.8,-9.45,53.76,20,8.05,93,55.99,1586917886
338,Malko Tarnovo,BG,41.98,27.53,41.18,75,11.41,93,42.8,1586917886
339,Oranjemund,NA,-28.55,16.43,55.08,33,10.02,89,55.08,1586917352
340,Jiaxing,CN,30.75,120.75,68.77,23,11.18,43,69.8,1586917886
341,Araouane,ML,18.9,-3.53,79.74,100,8.84,42,79.74,1586917887
342,Constitución,CL,-35.33,-72.42,52.72,11,6.73,69,52.72,1586917498
343,Severo-Kuril'sk,RU,50.68,156.12,31.86,100,13.98,94,31.86,1586917887
344,Nicoya,CR,10.15,-85.45,73.0,22,20.0,85,73.0,1586917801
345,Tallahassee,US,30.44,-84.28,71.74,75,4.7,88,73.4,1586917860
346,Temir,KZ,49.14,57.13,41.83,40,9.98,58,41.83,1586917887
347,Bilma,NE,18.69,12.92,77.77,0,6.17,15,77.77,1586917887
348,Alta Floresta,BR,-9.88,-56.09,71.4,100,2.91,90,71.4,1586917888
349,Vanavara,RU,60.34,102.28,46.87,0,2.73,65,46.87,1586917888
350,Miramar,US,25.99,-80.23,79.99,1,6.93,78,81.0,1586917888
351,Tilichiki,RU,60.47,166.1,23.76,100,7.83,96,23.76,1586917888
352,Canmore,CA,51.08,-115.35,34.57,90,5.82,51,36.0,1586917888
353,Bam,IR,29.11,58.36,64.24,7,8.14,30,64.24,1586917407
354,Guerrero Negro,MX,27.98,-114.06,62.51,82,17.69,77,62.51,1586917888
355,Kalmunai,LK,7.42,81.82,84.97,66,1.88,68,84.97,1586917889
356,Zhob,PK,31.34,69.45,63.82,0,10.42,27,63.82,1586917889
357,Atar,MR,20.52,-13.05,69.19,0,6.87,25,69.19,1586917889
358,Lagdo,CM,9.05,13.73,81.68,2,2.59,29,81.68,1586917889
359,Ürümqi,CN,43.8,87.6,59.0,75,4.47,62,59.0,1586917749
360,Baghdad,IQ,33.34,44.4,59.0,61,6.93,54,59.0,1586917654
361,Singaparna,ID,-7.35,108.11,85.15,50,3.56,56,85.15,1586917889
362,Kirkuk,IQ,35.47,44.39,58.21,0,6.89,48,58.21,1586917890
363,Coelho Neto,BR,-4.26,-43.01,72.75,100,2.84,96,72.75,1586917890
364,Puerto Maldonado,PE,-12.6,-69.18,67.69,100,5.32,92,67.69,1586917890
365,Orichi,RU,58.4,49.06,38.64,28,10.02,81,38.64,1586917890
366,Coyhaique,CL,-45.58,-72.07,48.2,100,2.24,87,48.2,1586917790
367,Richards Bay,ZA,-28.78,32.04,66.15,100,6.13,90,66.15,1586917891
368,Kyra,RU,49.58,111.98,47.01,100,22.44,34,47.01,1586917891
369,Auki,SB,-8.77,160.7,85.89,84,5.08,69,85.89,1586917891
370,Brazzaville,CG,-4.27,15.28,74.46,89,1.19,83,74.46,1586917892
371,Tutayev,RU,57.89,39.54,33.8,75,2.24,100,33.8,1586917892
372,Izumo,JP,35.37,132.77,66.99,100,16.11,39,68.0,1586917892
373,Melito di Porto Salvo,IT,37.92,15.77,60.19,20,10.29,59,63.0,1586917892
374,Miles City,US,46.41,-105.84,37.4,40,4.59,51,37.4,1586917893
375,Lexington,US,37.99,-84.48,35.29,1,4.7,74,37.99,1586917872
376,Isangel,VU,-19.55,169.27,80.53,100,9.06,76,80.53,1586917893
377,Hay River,CA,60.82,-115.8,33.8,90,5.82,93,33.8,1586917893
378,Adrar,MR,20.5,-10.07,74.66,0,6.82,50,74.66,1586917893
379,Kuril'sk,RU,45.23,147.88,30.83,98,13.94,94,30.83,1586917893
380,Vallentuna,SE,59.53,18.08,39.24,75,11.41,93,41.0,1586917894
381,Elverum,NO,60.88,11.56,32.04,100,2.8,83,36.0,1586917894
382,Willowmore,ZA,-33.29,23.49,48.15,0,1.23,66,48.15,1586917894
383,Oranjestad,AW,12.52,-70.03,80.6,20,17.22,78,80.6,1586917894
384,Novo Aripuanã,BR,-5.12,-60.38,73.06,100,1.95,97,73.06,1586917894
385,Carrickfergus,GB,54.72,-5.81,36.32,22,2.24,86,41.0,1586917894
386,Pingliang,CN,35.54,106.69,69.62,100,3.89,14,69.62,1586917894
387,Zhigansk,RU,66.77,123.37,17.22,18,14.54,91,17.22,1586917895
388,Chimbote,PE,-9.09,-78.58,71.87,6,6.08,80,71.87,1586917609
389,Tabuk,PH,17.42,121.44,84.6,28,5.26,56,84.6,1586917895
390,Sulangan,PH,11.14,123.72,83.97,0,6.33,63,83.97,1586917895
391,Marsá Maţrūḩ,EG,31.35,27.25,55.4,99,5.82,71,55.4,1586917895
392,Dingle,PH,11.0,122.67,87.84,18,8.97,56,87.84,1586917895
393,Peterhead,GB,57.51,-1.8,38.66,46,3.36,80,45.0,1586917895
394,Hambantota,LK,6.12,81.12,82.9,82,5.41,76,82.9,1586917896
395,Mount Gambier,AU,-37.83,140.77,75.2,100,12.75,29,75.2,1586917896
396,Ossora,RU,59.24,163.07,25.05,6,5.21,89,25.05,1586917896
397,Klyuchi,RU,52.27,79.17,45.28,97,14.81,68,45.28,1586917896
398,Fukuechō,JP,32.69,128.84,62.6,75,5.82,55,62.6,1586917896
399,Wundanyi,KE,-3.4,38.36,61.45,100,3.36,74,61.45,1586917896
400,Monrovia,LR,6.3,-10.8,78.8,20,4.61,94,78.8,1586917897
401,Gambiran,ID,-6.8,111.5,83.37,5,4.56,73,83.37,1586917897
402,Mishkino,RU,55.34,63.92,36.63,83,12.48,77,36.63,1586917897
403,Aste,IT,45.79,11.1,43.18,64,4.7,60,46.99,1586917897
404,Geraldton,AU,-28.77,114.6,71.6,77,19.46,53,71.6,1586917866
405,Soligalich,RU,59.08,42.29,36.72,100,3.4,90,36.72,1586917505
406,Thunder Bay,CA,48.4,-89.32,23.52,20,4.7,53,24.8,1586917890
407,Mana,GF,5.66,-53.78,75.63,93,7.02,83,75.63,1586917898
408,Pimentel,PE,-6.84,-79.93,72.72,16,10.36,77,72.72,1586917332
409,Vrangel',RU,42.73,133.08,46.72,0,4.97,53,46.72,1586917898
410,Valparaíso,CL,-33.04,-71.63,50.85,0,4.7,87,51.8,1586917508
411,Hamza,UZ,40.43,71.5,51.8,75,9.17,87,51.8,1586917898
412,La Santisima Trinidad,BO,-14.83,-64.9,66.15,84,3.8,92,66.15,1586917693
413,Chifeng,CN,42.27,118.96,58.23,97,5.37,27,58.23,1586917899
414,Ahipara,NZ,-35.17,173.17,62.31,80,16.08,67,62.31,1586917899
415,Anadyr,RU,64.75,177.48,14.0,40,13.42,85,14.0,1586917899
416,Mayya,RU,61.73,130.28,37.4,20,6.71,59,37.4,1586917899
417,Gillette,US,44.29,-105.5,28.36,90,4.7,92,30.0,1586917900
418,Lindenhurst,US,40.69,-73.37,48.76,90,11.41,57,52.0,1586917633
419,Kubuta,SZ,-26.88,31.48,62.37,100,2.15,80,62.37,1586917900
420,Dakar,SN,14.69,-17.44,68.0,100,14.99,82,68.0,1586917850
421,Ovalle,CL,-30.6,-71.2,54.77,0,0.89,69,54.77,1586917900
422,King City,US,36.21,-121.13,64.13,1,8.05,59,66.99,1586917900
423,Yaan,NG,7.38,8.57,80.87,26,10.42,72,80.87,1586917901
424,Muros,ES,42.78,-9.06,54.61,20,6.93,87,60.01,1586917901
425,Poya,NC,-21.35,165.15,78.33,58,13.82,77,78.33,1586917901
426,Utete,TZ,-7.99,38.76,73.0,64,2.68,97,73.0,1586917901
427,Vestmannaeyjar,IS,63.44,-20.27,40.01,100,19.28,79,40.01,1586917901
428,Olafsvik,IS,64.89,-23.71,37.2,100,26.15,78,37.2,1586917901
429,Ransang,PH,8.96,117.58,83.91,0,3.18,61,83.91,1586917902
430,Tura,IN,25.52,90.22,87.19,8,7.11,42,87.19,1586917324
431,Xushan,CN,30.18,121.25,69.8,20,11.18,40,69.8,1586917902
432,Ust'-Uda,RU,54.17,103.03,50.72,0,2.13,38,50.72,1586917564
433,Marzuq,YE,14.4,46.47,70.5,80,3.6,55,70.5,1586917902
434,Vani,GE,42.08,42.52,57.2,100,14.99,47,57.2,1586917902
435,Olhão,PT,37.03,-7.84,58.55,20,14.99,82,60.8,1586917902
436,Verāval,IN,20.9,70.37,86.54,4,11.32,38,86.54,1586917903
437,Makakilo City,US,21.35,-158.09,77.65,1,4.7,74,78.8,1586917903
438,Verkhnyaya Inta,RU,65.98,60.31,31.44,21,8.32,93,31.44,1586917903
439,Teahupoo,PF,-17.83,-149.27,86.0,7,16.11,74,86.0,1586917903
440,Alyangula,AU,-13.85,136.42,91.4,40,11.41,55,91.4,1586917903
441,Zaporizhia,UA,47.82,35.18,33.17,75,13.42,81,33.8,1586917904
442,Tornio,FI,65.85,24.15,26.6,90,5.82,100,26.6,1586917904
443,San Quintín,MX,30.48,-115.95,61.2,0,13.04,79,61.2,1586917468
444,Tacuarembó,UY,-31.73,-55.98,50.72,0,11.45,61,50.72,1586917904
445,Pritomskiy,RU,53.77,87.61,49.57,26,2.64,63,49.57,1586917904
446,Homer,US,59.64,-151.55,44.56,90,6.93,75,46.0,1586917710
447,Salaga,GH,8.55,-0.52,83.01,24,9.75,66,83.01,1586917905
448,Novosokol'niki,RU,56.35,30.16,31.14,99,7.07,95,31.14,1586917905
449,Hvide Sande,DK,56.0,8.13,43.77,100,16.11,87,45.0,1586917905
450,Lake City,US,30.19,-82.64,72.46,75,10.29,83,75.2,1586917905
451,Alofi,NU,-19.06,-169.92,84.2,75,11.41,70,84.2,1586917451
452,Plainview,US,40.78,-73.47,48.88,90,11.41,57,52.0,1586917752
453,Novomikhaylovskiy,RU,44.26,38.86,53.24,100,8.57,58,53.24,1586917906
454,Najrān,SA,17.49,44.13,69.8,40,3.94,73,69.8,1586917906
455,Sassandra,CI,4.95,-6.08,79.43,99,3.71,86,79.43,1586917906
456,Ekhabi,RU,53.51,142.97,30.99,100,11.41,94,30.99,1586917906
457,Cravinhos,BR,-21.34,-47.73,64.4,100,1.81,100,64.4,1586917906
458,Port Macquarie,AU,-31.43,152.92,78.67,0,9.8,54,79.0,1586917849
459,Chui,UY,-33.7,-53.46,59.65,100,25.93,77,59.65,1586917907
460,Luangwa,ZM,-15.62,30.42,70.2,20,1.63,70,70.2,1586917907
461,Balabac,PH,7.99,117.06,86.18,9,10.6,65,86.18,1586917907
462,Umm Hājar,TD,13.3,19.7,75.99,48,10.83,15,75.99,1586917907
463,Bariloche,AR,-41.15,-71.31,53.35,75,3.36,71,55.99,1586917841
464,Meulaboh,ID,4.14,96.13,85.12,43,2.24,66,85.12,1586917907
465,Rocha,UY,-34.48,-54.33,58.23,100,25.66,89,58.23,1586917908
466,Brae,GB,60.4,-1.35,46.4,99,24.16,87,46.4,1586917908
467,Loikaw,MM,19.67,97.21,90.16,0,3.98,22,90.16,1586917908
468,Kedgwick,CA,47.64,-67.34,29.19,62,6.67,91,29.19,1586917908
469,Vila Velha,BR,-20.33,-40.29,73.71,35,3.36,88,73.99,1586917909
470,Kristinehamn,SE,59.31,14.11,41.38,100,3.36,86,44.01,1586917910
471,Kosum Phisai,TH,16.25,103.07,89.69,99,3.36,62,93.0,1586917910
472,Salalah,OM,17.02,54.09,80.6,20,6.93,74,80.6,1586917342
473,Praia da Vitória,PT,38.73,-27.07,51.8,40,19.53,87,51.8,1586917475
474,Arman',RU,59.7,150.17,29.53,97,2.53,91,29.53,1586917910
475,Innisfail,AU,-17.53,146.03,78.01,75,8.99,68,78.01,1586917910
476,Bambuí,BR,-20.01,-45.98,65.66,100,0.63,75,65.66,1586917910
477,Nouadhibou,MR,20.93,-17.03,62.6,0,11.41,88,62.6,1586917911
478,Acaraú,BR,-2.89,-40.12,75.47,100,3.13,83,75.47,1586917911
479,Carnduff,CA,49.17,-101.8,24.01,72,3.87,61,24.01,1586917911
480,Dera Bugti,PK,29.03,69.15,83.43,1,5.01,20,83.43,1586917911
481,Norman Wells,CA,65.28,-126.83,37.4,20,10.29,59,37.4,1586917912
482,Alice Springs,AU,-23.7,133.88,87.8,0,6.93,15,87.8,1586917912
483,Biltine,TD,14.53,20.92,75.69,58,16.55,14,75.69,1586917525
484,Northam,GB,51.03,-4.22,38.26,8,7.99,100,43.0,1586917912
485,Carácuaro,MX,19.01,-101.13,81.37,97,4.94,19,81.37,1586917912
486,Mahibadhoo,MV,3.78,72.97,85.1,11,4.54,68,85.1,1586917912
487,Berbera,SO,10.44,45.01,82.92,66,6.33,77,82.92,1586917912
488,Malakal,SS,9.53,31.66,77.2,6,5.41,14,77.2,1586917913
489,Boyuibe,BO,-20.42,-63.28,59.07,37,4.25,48,59.07,1586917913
490,Beruwala,LK,6.48,79.98,84.11,37,2.55,71,84.11,1586917913
491,Vestmanna,FO,62.16,-7.17,44.6,96,14.99,100,44.6,1586917913
492,Bundaberg,AU,-24.85,152.35,81.88,40,13.87,51,82.99,1586917913
493,Saint-François,FR,46.42,3.91,32.25,0,3.36,74,33.8,1586917914
494,Mitsamiouli,KM,-11.38,43.28,83.28,73,7.25,73,83.28,1586917914
495,Luganville,VU,-15.53,167.17,84.2,75,10.29,74,84.2,1586917914
496,Măerişte,RO,47.32,22.8,27.88,0,5.82,86,28.4,1586917914
497,Saint Anthony,US,45.02,-93.22,25.11,90,10.29,53,27.0,1586917317
498,Mayo,US,38.89,-76.51,47.57,90,8.05,54,54.0,1586917530
499,Araci,BR,-11.33,-38.97,70.86,63,3.85,84,70.86,1586917915
500,Nchelenge,ZM,-9.35,28.73,70.23,100,1.81,66,70.23,1586917915
501,Tombouctou,ML,20.0,-3.0,81.25,100,14.43,34,81.25,1586917915
502,Portland,US,45.52,-122.68,60.3,20,10.29,45,66.2,1586917874
503,Roald,NO,62.58,6.13,41.77,100,17.22,87,43.0,1586917916
504,Tsiroanomandidy,MG,-18.77,46.03,60.87,0,2.89,70,60.87,1586917916
505,LaBelle,US,26.76,-81.44,80.67,1,5.5,83,82.4,1586917916
506,Port Lincoln,AU,-34.73,135.87,77.36,100,17.72,28,77.36,1586917916
507,Hervey Bay,AU,-25.3,152.85,78.24,40,13.87,51,80.6,1586917377
508,Saýat,TM,38.78,63.88,46.4,25,9.17,35,46.4,1586917916
509,Jizan,SA,17.33,42.67,84.2,40,3.36,74,84.2,1586917917
510,Kirovskiy,RU,45.09,133.51,50.38,0,10.85,43,50.38,1586917917
511,Kyzyl-Suu,KG,42.34,78.0,44.85,100,6.55,41,44.85,1586917917
512,Vista Hermosa,MX,19.52,-99.22,74.28,40,8.05,23,77.0,1586917917
513,Barra de Tecoanapa,MX,16.52,-98.75,77.45,73,5.64,77,77.45,1586917917
514,Aswān,EG,24.09,32.91,64.4,0,10.29,23,64.4,1586917918
515,Bubaque,GW,11.28,-15.83,79.02,95,9.13,65,79.02,1586917918
516,Lábrea,BR,-7.26,-64.8,74.3,93,3.29,95,74.3,1586917918
517,Cairns,AU,-16.92,145.77,84.15,75,20.8,55,87.8,1586917685
518,Margate,GB,51.38,1.39,38.95,98,2.24,68,46.0,1586917918
519,Teguise,ES,29.06,-13.56,60.8,16,2.24,77,60.8,1586917918
520,Zyryanka,RU,65.75,150.85,13.51,27,7.96,90,13.51,1586917918
521,Llano Largo,PA,7.9,-80.43,79.14,1,3.94,79,79.14,1586917919
522,Caravelas,BR,-17.71,-39.25,75.9,8,4.5,87,75.9,1586917919
523,Goderich,CA,43.75,-81.72,33.04,53,13.69,66,36.0,1586917794
524,Aguadilla,PR,18.43,-67.15,76.35,1,4.0,81,78.01,1586917919
525,Witu,KE,-2.39,40.44,79.25,100,7.02,88,79.25,1586917919
526,Tres Arroyos,AR,-38.37,-60.28,49.8,0,3.96,79,49.8,1586917919
527,Port Hawkesbury,CA,45.62,-61.35,39.81,1,5.82,65,45.0,1586917544
528,Bardejov,SK,49.29,21.27,28.62,21,1.12,86,30.99,1586917894
529,Berlevåg,NO,70.86,29.09,35.49,97,12.21,86,35.49,1586917920
530,Zvishavane,ZW,-20.33,30.07,71.22,79,5.14,34,71.22,1586917920
531,Iralaya,HN,15.0,-83.23,78.17,0,10.22,80,78.17,1586917920
532,Santa Cruz das Palmeiras,BR,-21.83,-47.25,59.0,100,3.36,100,59.0,1586917921
533,Slave Lake,CA,55.28,-114.77,39.2,90,9.17,60,39.2,1586917818
534,Distrikt Brokopondo,SR,4.75,-55.17,72.5,72,3.33,82,72.5,1586917921
535,Los Alamos,US,35.89,-106.31,37.89,1,13.87,14,45.0,1586917921
536,Lethem,GY,3.38,-59.8,83.07,93,9.42,45,83.07,1586917921
537,Puerto Peñasco,MX,31.32,-113.53,73.99,0,8.01,48,73.99,1586917921
538,Myre,NO,69.1,15.95,33.8,78,19.46,77,37.4,1586917921
539,Xiongyue,CN,40.18,122.12,64.78,100,11.74,31,64.78,1586917922
540,Yar-Sale,RU,66.83,70.83,32.05,100,9.98,99,32.05,1586917922
541,Batagay-Alyta,RU,67.8,130.41,16.63,68,23.98,79,16.63,1586917922
542,Hualmay,PE,-11.1,-77.61,71.82,2,5.99,76,71.82,1586917922
543,Caucayá,CO,-0.19,-74.78,76.96,26,1.66,66,76.96,1586917922
544,Rāmshīr,IR,30.89,49.41,61.68,6,6.93,41,62.6,1586917923
545,Murovani Kurylivtsi,UA,48.72,27.52,28.99,0,1.01,84,28.99,1586917923
546,Davila,PH,18.47,120.58,84.2,40,5.82,74,84.2,1586917923
547,San Vicente de Cañete,PE,-13.08,-76.38,71.17,99,4.99,76,71.17,1586917923
548,Saurimo,AO,-9.66,20.39,66.31,100,1.25,70,66.31,1586917923
549,Adré,TD,13.47,22.2,68.59,57,15.57,16,68.59,1586917924
550,Tipuani,BO,-15.56,-68.02,69.1,100,0.69,70,69.1,1586917924
551,Ambanja,MG,-13.68,48.45,73.76,26,4.32,79,73.76,1586917924
552,Yumen,CN,40.28,97.2,61.99,16,13.24,26,61.99,1586917373
553,Nelson,NZ,-41.28,173.28,55.99,77,4.0,54,55.99,1586917924
554,Beasain,ES,43.05,-2.2,53.17,75,4.7,81,57.2,1586917925
555,Kuala Lumpur,MY,3.14,101.69,84.67,20,3.36,74,86.0,1586917834
556,Baruun-Urt,MN,46.68,113.28,47.98,95,8.95,35,47.98,1586917925
557,Lakselv,NO,70.05,24.97,32.0,99,25.28,95,32.0,1586917925
558,Maragogi,BR,-9.01,-35.22,78.17,25,3.36,77,78.17,1586917580
559,Wysokie Mazowieckie,PL,52.92,22.52,33.57,51,35.01,67,35.01,1586917925
560,Bontang,ID,0.13,117.5,85.6,54,9.44,62,85.6,1586917925
561,Huinan,CN,42.62,126.26,64.99,94,4.59,25,64.99,1586917926
562,Flin Flon,CA,54.77,-101.86,14.95,71,4.45,93,14.95,1586917380
563,Palimbang,PH,6.21,124.19,84.81,56,5.26,69,84.81,1586917926
564,Buala,SB,-8.14,159.59,86.07,92,6.93,70,86.07,1586917926
565,Yarmouth,US,41.71,-70.23,46.71,90,12.75,61,48.2,1586917777
566,Turukhansk,RU,65.82,87.98,31.84,68,5.17,97,31.84,1586917926
567,Elista,RU,46.31,44.26,46.2,97,11.18,75,46.4,1586917926
568,Pacifica,US,37.61,-122.49,68.52,20,18.34,24,73.99,1586917874
569,Aleksandrov Gay,RU,50.15,48.57,43.95,0,14.94,84,43.95,1586917927
570,Dali,CN,25.7,100.18,72.34,0,5.37,17,72.34,1586917400
571,Pindiga,NG,9.98,10.93,81.39,3,3.2,13,81.39,1586917927
572,Mount Isa,AU,-20.73,139.5,93.2,23,10.29,26,93.2,1586917927
573,Sokolo,ML,14.73,-6.12,80.76,78,15.55,48,80.76,1586917927
574,Praxédis Guerrero,MX,31.37,-106.02,66.52,20,8.01,15,69.8,1586917928
575,Viçosa,BR,-20.75,-42.88,64.15,89,6.02,78,64.15,1586917928
576,Mabaruma,GY,8.2,-59.78,73.18,1,4.43,86,73.18,1586917484
577,Bud,US,39.45,-86.18,36.09,40,3.36,47,39.2,1586917928
578,Kampot,KH,10.62,104.18,84.2,40,9.17,70,84.2,1586917928
